[
  {
    "name": "NL @ CSNL",
    "province": "Unknown",
    "postalCode": null,
    "latitude": 47.5651292,
    "longitude": -52.7360847,
    "website": null,
    "urlSlug": "ca/st-johns-newfoundland-and-labrador/nl-csnl",
    "id": "c7eee2cb-5d17-4be9-8962-3e39d2a2708b",
    "rawAddress": "Community Sector Council Newfoundland & Labrador\n25 Anderson Avenue"
  },
  {
    "name": "KWCODECLUB,Waterloo@StemLabRobotics",
    "province": "Unknown",
    "postalCode": null,
    "latitude": 43.4715058,
    "longitude": -80.5929708,
    "website": "http://www.stemlabrobotics.com",
    "urlSlug": "ca/waterloo-on/kwcodeclub-waterloo-stemlabrobotics",
    "id": "64055b10-5d72-48ec-9f88-7ae078d22940",
    "rawAddress": "Stem Lab Robotics"
  },
  {
    "name": "Toronto",
    "province": "Unknown",
    "postalCode": null,
    "latitude": 43.64725809999999,
    "longitude": -79.38695089999999,
    "website": "http://coderdojo.ca",
    "urlSlug": "ca/ontario/2-2-0-king-st-w-toronto-on-m-5-h-1k-4-canada/toronto",
    "id": "9ec1ab8d-c9f4-43cb-a9a3-e30032729e18",
    "rawAddress": "220 King St W, Toronto, ON M5H 1K4, Canada"
  },
  {
    "name": "Erin Meadows, Mississauga @ STEMlabs.ca",
    "province": "Unknown",
    "postalCode": null,
    "latitude": 43.5563441,
    "longitude": -79.71737639999998,
    "website": null,
    "urlSlug": "ca/mississauga-on/erin-meadows-mississauga-stemlabs-ca",
    "id": "b7409dc5-fe9f-4a10-af10-83127154f1b7",
    "rawAddress": "2800 Erin Centre Blvd"
  },
  {
    "name": "Steelcity Dojo @ Afro-Canadian Caribbean Association ",
    "province": "ON",
    "postalCode": "L8N 1C5",
    "latitude": 43.25334609999999,
    "longitude": -79.85635769999999,
    "website": "https://accahamilton.com/",
    "urlSlug": null,
    "id": "37c7969d-e27a-4eff-a0f0-9e044c71d94f",
    "rawAddress": "423 King St E, Hamilton, ON, L8N 1C5"
  },
  {
    "name": "IBM - Scratch Group 2",
    "province": "ON",
    "postalCode": "L3R9Z7",
    "latitude": 43.8181051,
    "longitude": -79.3355242,
    "website": null,
    "urlSlug": null,
    "id": "d0525611-7030-41ad-9921-0479778f5b8c",
    "rawAddress": "3600 Steeles Avenue East, Toronto, Ontario, L3R9Z7"
  },
  {
    "name": "St. Mary's School",
    "province": "SK",
    "postalCode": "S4A 1M2",
    "latitude": 49.15224689999999,
    "longitude": -102.983973,
    "website": null,
    "urlSlug": null,
    "id": "5551a1ab-1ea5-4348-8a57-f8ce1c2d0688",
    "rawAddress": "615 Arthur Avenue, Estevan, S4A 1M2"
  },
  {
    "name": "Shaughnessy Elementary Code Club",
    "province": "BC",
    "postalCode": "V6J 3G3",
    "latitude": 49.24845390000001,
    "longitude": -123.1436357,
    "website": null,
    "urlSlug": null,
    "id": "82548e42-8947-4e22-9075-5c4e3e3118b8",
    "rawAddress": "4250 Marguerite Street, Vancouver, V6J 3G3"
  },
  {
    "name": "Nalu",
    "province": "ON",
    "postalCode": "P7B 3B9",
    "latitude": 48.4314838,
    "longitude": -89.2299999,
    "website": null,
    "urlSlug": null,
    "id": "623cae77-27fc-4f21-9427-8ee97d257ffe",
    "rawAddress": "176 Algoma Street , Thunder Bay , P7B 3B9"
  },
  {
    "name": "CodeNL",
    "province": "NL",
    "postalCode": "A1B 3X9",
    "latitude": 47.5713807,
    "longitude": -52.73113379999999,
    "website": null,
    "urlSlug": null,
    "id": "694f1f0d-6658-4341-884f-b8ab004585e9",
    "rawAddress": "230 Elizabeth Ave, St. John's, A1B 3X9"
  },
  {
    "name": "Pinnguaq Code Club- Pangnirtung Youth Centre",
    "province": "NT",
    "postalCode": "X0A0R0",
    "latitude": 66.1465578,
    "longitude": -65.7012182,
    "website": null,
    "urlSlug": null,
    "id": "8c7f9421-bb55-4486-83fc-c5a06a51cab3",
    "rawAddress": "PO Box 142, Pangnirtung, X0A0R0"
  },
  {
    "name": "St. Dominic Savio Catholic Elementary School",
    "province": "ON",
    "postalCode": "N2N 3A6",
    "latitude": 43.4337857,
    "longitude": -80.5399611,
    "website": null,
    "urlSlug": null,
    "id": "b39dd997-4459-44c0-8f41-0f9ae829cda1",
    "rawAddress": "3 Westforest Trail, Kitchener, N2N 3A6"
  },
  {
    "name": "École Père Edgar T. LeBlanc",
    "province": "NB",
    "postalCode": "E4P 8C8",
    "latitude": 46.2239918,
    "longitude": -64.4216126,
    "website": null,
    "urlSlug": null,
    "id": "0dd62bf7-84aa-42f2-9540-1cffd7a4f3aa",
    "rawAddress": "1351 Route 133, Grand-Barachois, Nouveau-Brunswick, E4P 8C8"
  },
  {
    "name": "IBM - Scratch Group 1",
    "province": "ON",
    "postalCode": "L3R9Z7",
    "latitude": 43.8181051,
    "longitude": -79.3355242,
    "website": null,
    "urlSlug": null,
    "id": "00f7b36c-bd13-4fdb-a068-102106c43a97",
    "rawAddress": "3600 Steeles Avenue East, Toronto, Ontario, L3R9Z7"
  },
  {
    "name": "IBM - Scratch Group 3",
    "province": "ON",
    "postalCode": "L3R9Z7",
    "latitude": 43.8181051,
    "longitude": -79.3355242,
    "website": null,
    "urlSlug": null,
    "id": "2f4bcdbd-9e07-410e-8950-6ce03c0bfadf",
    "rawAddress": "3600 Steeles Avenue East, Toronto, Ontario, L3R9Z7"
  },
  {
    "name": "IBM - Python Group 2",
    "province": "ON",
    "postalCode": "L3R9Z7",
    "latitude": 43.8181051,
    "longitude": -79.3355242,
    "website": null,
    "urlSlug": null,
    "id": "4b2fa5b6-3c8f-4f24-85e7-b17ae0d2fe1f",
    "rawAddress": "3600 Steeles Avenue East, Toronto, Ontario, L3R9Z7"
  },
  {
    "name": "IBM - Scratch Group 4",
    "province": "ON",
    "postalCode": "L3R9Z7",
    "latitude": 43.8181051,
    "longitude": -79.3355242,
    "website": null,
    "urlSlug": null,
    "id": "3a1431ef-bdfe-4351-88b1-b7861f1732d0",
    "rawAddress": "3600 Steeles Avenue East, Toronto, Ontario, L3R9Z7"
  },
  {
    "name": "Bibliothèque Marius-Barbeau",
    "province": "QC",
    "postalCode": "H7A 3V6",
    "latitude": 45.677752,
    "longitude": -73.581954,
    "website": null,
    "urlSlug": null,
    "id": "d3799248-7754-44ea-be33-c7e502f6e3bf",
    "rawAddress": "1245 montée du Moulin, Laval, H7A 3V6"
  },
  {
    "name": "GTA @ Online",
    "province": "Unknown",
    "postalCode": null,
    "latitude": 43.559817,
    "longitude": -79.7163246,
    "website": null,
    "urlSlug": "ca/mississauga-on/gta-online",
    "id": "b32170a5-5a1c-4408-bfc6-f8a32a3ed05c",
    "rawAddress": "2665 Erin Centre Blvd, Mississauga, ON L5M 5H6"
  },
  {
    "name": "Napanee Branch @ Lennox + Addington Libraries",
    "province": "Unknown",
    "postalCode": null,
    "latitude": 44.2422494,
    "longitude": -76.9484013,
    "website": null,
    "urlSlug": "ca/napanee-on/napanee-branch-lennox-addington-libraries",
    "id": "003b1e60-2668-4344-8835-1d512b449680",
    "rawAddress": "25 River Rd, Napanee, ON K7R 3S6"
  },
  {
    "name": "Cambridge, ON @ STEMOTICS",
    "province": "Unknown",
    "postalCode": null,
    "latitude": 43.3956162,
    "longitude": -80.325739,
    "website": "http://www.stemotics.com",
    "urlSlug": "ca/cambridge-on/cambridge-on-stemotics",
    "id": "d35457cf-e160-4eec-88b1-33314ecaffbe",
    "rawAddress": "Suite 155, 1315 Bishop St.N, Cambridge"
  },
  {
    "name": "York Region North @ Schomberg Library",
    "province": "Unknown",
    "postalCode": null,
    "latitude": 43.99872280491188,
    "longitude": -79.67984139919281,
    "website": null,
    "urlSlug": "ca/schomberg-on/york-region-north-schomberg-library",
    "id": "a790400d-92b7-4d75-a6d3-395c8bddb6e4",
    "rawAddress": "Main Street"
  },
  {
    "name": "Cowansville@MVHS Pi Club",
    "province": "Unknown",
    "postalCode": null,
    "latitude": 45.2109245,
    "longitude": -72.7755176,
    "website": null,
    "urlSlug": "ca/cowansville-qc/cowansville-mvhs-pi-club",
    "id": "cf599de2-dcc9-4579-96cf-56fe706badcf",
    "rawAddress": "Massey Vanier High School\n224 Mercier Street"
  },
  {
    "name": "St-Leonard, Montreal @ LMAC High School",
    "province": "Unknown",
    "postalCode": null,
    "latitude": 45.575479,
    "longitude": -73.585729,
    "website": null,
    "urlSlug": "ca/montreal-qc/st-leonard-montreal-lmac-high-school",
    "id": "22529599-f82b-4fc8-9457-4138d4a4431a",
    "rawAddress": "Laurier Macdonald High School\n7355 Viau Blvd\nSt-Leonard, QC,H1S 3C3"
  },
  {
    "name": "Vancouver, BC @ Vancouver Hack Space",
    "province": "Unknown",
    "postalCode": null,
    "latitude": 49.27680669999999,
    "longitude": -123.07257620000001,
    "website": "http://vanhack.ca",
    "urlSlug": "ca/vancouver-bc/vancouver-bc-vancouver-hack-space",
    "id": "2d2e7cb1-aa4f-41d6-952c-23055fe5d483",
    "rawAddress": "1601 Venables Street"
  },
  {
    "name": "Rose City, Windsor, Ontario  @ RCIC",
    "province": "Unknown",
    "postalCode": null,
    "latitude": 42.3118845,
    "longitude": -82.9609936,
    "website": "https://github.com/elwarsha",
    "urlSlug": "ca/windsor-on/rose-city-windsor-ontario-rcic",
    "id": "663989d6-6956-4b92-b672-208185fa726e",
    "rawAddress": "5420 Empress St, Windsor, ON N8T 1B4"
  },
  {
    "name": "St-Constant @ St-Constant Public Library",
    "province": "QC",
    "postalCode": "J5A2K8",
    "latitude": 45.3782806,
    "longitude": -73.58331629999999,
    "website": "",
    "urlSlug": null,
    "id": "9093abb4-e31d-4ddc-a538-1b9a57cf146f",
    "rawAddress": "162 Bd Monchamp, Saint-Constant, QC, J5A2K8"
  },
  {
    "name": "East St. Paul @ Robert Andrews",
    "province": "MB",
    "postalCode": "R2E0H7",
    "latitude": 49.9907254,
    "longitude": -97.03659119999999,
    "website": "",
    "urlSlug": null,
    "id": "02da36d8-fdbb-4795-9e6a-4917797084de",
    "rawAddress": "3230 Manlius St., East St. Paul, Manitoba / Canada, R2E0H7"
  },
  {
    "name": "Saguenay @ École Notre Dame du Rosaire",
    "province": "QC",
    "postalCode": "G7G1K9",
    "latitude": 48.4399044,
    "longitude": -71.06124659999999,
    "website": "",
    "urlSlug": null,
    "id": "70cb7fd0-fa1e-4333-b742-510c35c52b49",
    "rawAddress": "2090 blv Tadoussac, Saguenay, Québec, G7G1K9"
  },
  {
    "name": "Duckomatics Coding Club ",
    "province": "BC",
    "postalCode": "V5E 1G8",
    "latitude": 49.2189124,
    "longitude": -122.952497,
    "website": "",
    "urlSlug": null,
    "id": "c065845e-0cc5-4319-b637-1f8f70557f6f",
    "rawAddress": "7311 Kingsway, Burnaby, BC, V5E 1G8"
  }
]